[
    {
        "name": "Besaro Hotels",
        "category": "",
        "description": "",
        "location": "",
        "imageUrl": "",
        "imageHint": "",
        "address": "C/Canalejas, 13. 11150 Vejer de la Frontera Cádiz - España",
        "phone": "+34 62988 93 01",
        "website": "besarohotels.com",
        "rating": 0,
        "category_key": "",
        "subcategory_key": "",
        "currentOfferUrl": ""
    },
    {
        "name": "Moventis Experience",
        "category": "",
        "description": "",
        "location": "",
        "imageUrl": "",
        "imageHint": "",
        "address": "Sabadell – Barcelona, Passeig del Comerç, 100",
        "phone": "+34 93 767 28 36",
        "website": "www.moventisexperience.es",
        "rating": 0,
        "category_key": "",
        "subcategory_key": "",
        "currentOfferUrl": ""
    },
    {
        "name": "Mint57",
        "category": "",
        "description": "",
        "location": "",
        "imageUrl": "",
        "imageHint": "",
        "address": "c/Hermosilla, 48\n28001, Madrid",
        "phone": "+34 692 185 281",
        "website": "www.mint57.com",
        "rating": 0,
        "category_key": "",
        "subcategory_key": "",
        "currentOfferUrl": ""
    },
    {
        "name": "Abies Travel",
        "category": "",
        "description": "",
        "location": "",
        "imageUrl": "",
        "imageHint": "",
        "address": "Avda. Palma de Mallorca, nº 17, Málaga",
        "phone": "+34 952 05 05 33",
        "website": "www.abiestravel.com",
        "rating": 0,
        "category_key": "",
        "subcategory_key": "",
        "currentOfferUrl": ""
    },
    {
        "name": "Absotec",
        "category": "",
        "description": "",
        "location": "",
        "imageUrl": "",
        "imageHint": "",
        "address": "Paseo de La Castellana 91 28046 Madrid 691.407.075",
        "phone": "+34 691 40 70 75",
        "website": "www.absorcionacustica.com",
        "rating": 0,
        "category_key": "",
        "subcategory_key": "",
        "currentOfferUrl": ""
    },
    {
        "name": "Guardamar Turismo",
        "category": "",
        "description": "",
        "location": "",
        "imageUrl": "",
        "imageHint": "",
        "address": "Plaça de la Constitució, 7, Guardamar del Segura",
        "phone": "+34 96 572 44 88",
        "website": "www.guardamarturisme.es",
        "rating": 0,
        "category_key": "",
        "subcategory_key": "",
        "currentOfferUrl": ""
    },
    {
        "name": "Evenia Hotels",
        "category": "",
        "description": "",
        "location": "",
        "imageUrl": "",
        "imageHint": "",
        "address": "Senyora de Rossell 33, Lloret de Mar, España",
        "phone": "+34 972 37 44 89",
        "website": "www.eveniahotels.com",
        "rating": 0,
        "category_key": "",
        "subcategory_key": "",
        "currentOfferUrl": ""
    },
    {
        "name": "ALL4ONE Travel",
        "category": "",
        "description": "",
        "location": "",
        "imageUrl": "",
        "imageHint": "",
        "address": "Calle Alfonso XII 62, 2ª Planta, Madrid",
        "phone": "+34 601 007 253",
        "website": "www.all4one.travel",
        "rating": 0,
        "category_key": "",
        "subcategory_key": "",
        "currentOfferUrl": ""
    },
    {
        "name": "Asiana Airlines",
        "category": "",
        "description": "",
        "location": "",
        "imageUrl": "",
        "imageHint": "",
        "address": "Terminal 1, Dique Sur, El Prat de Llobregat, Barcelona",
        "phone": "+34 932 596 572",
        "website": "www.flyasiana.com",
        "rating": 0,
        "category_key": "",
        "subcategory_key": "",
        "currentOfferUrl": ""
    },
    {
        "name": "Mi Marrakech",
        "category": "",
        "description": "",
        "location": "",
        "imageUrl": "",
        "imageHint": "",
        "address": "30500, Murcia, España",
        "phone": "+34 653 248 378",
        "website": "www.mimarrakech.com",
        "rating": 0,
        "category_key": "",
        "subcategory_key": "",
        "currentOfferUrl": ""
    },
    {
        "name": "Around the world",
        "category": "",
        "description": "",
        "location": "",
        "imageUrl": "",
        "imageHint": "",
        "address": "CERDANYOLA DEL VALLES, Barcelona",
        "phone": "+34 600 41 58 39",
        "website": "???",
        "rating": 0,
        "category_key": "",
        "subcategory_key": "",
        "currentOfferUrl": ""
    },
    {
        "name": "Cosmologis y consulta personal",
        "category": "",
        "description": "",
        "location": "",
        "imageUrl": "",
        "imageHint": "",
        "address": "Roger de Llúria, 29, Ppal. 2ª Barcelona",
        "phone": "+34 656 319 400",
        "website": "www.pilargarciagil.com",
        "rating": 0,
        "category_key": "",
        "subcategory_key": "",
        "currentOfferUrl": ""
    },
    {
        "name": "The African experiences",
        "category": "",
        "description": "",
        "location": "",
        "imageUrl": "",
        "imageHint": "",
        "address": "Paseo de la Castellana, 161-1º C 28046 Madrid Spain",
        "phone": "+34 91 315 29 44",
        "website": "www.thrafricaexperiences.com",
        "rating": 0,
        "category_key": "",
        "subcategory_key": "",
        "currentOfferUrl": ""
    },
    {
        "name": "Grupo skeido",
        "category": "",
        "description": "",
        "location": "",
        "imageUrl": "",
        "imageHint": "",
        "address": "Barcelona C/Santiago Rusiṅol, 3 Sant Cugat(08172)-Espaṅa",
        "phone": "+34 658 713 163",
        "website": "www.skediotravel.com",
        "rating": 0,
        "category_key": "",
        "subcategory_key": "",
        "currentOfferUrl": ""
    },
    {
        "name": "Guest incoming",
        "category": "",
        "description": "",
        "location": "",
        "imageUrl": "",
        "imageHint": "",
        "address": "Avenida Fraga Iribarne, 15 Portal 4, primera planta 29620 Torremolinos, Malaga",
        "phone": "+34 678 807 328",
        "website": "www.guestincoming.com",
        "rating": 0,
        "category_key": "",
        "subcategory_key": "",
        "currentOfferUrl": ""
    },
    {
        "name": "Granada",
        "category": "",
        "description": "",
        "location": "",
        "imageUrl": "",
        "imageHint": "",
        "address": "Carcel Baja, 3 18001 Granada, Espaṅa",
        "phone": "+34 958 24 71 47",
        "website": "www.turgranada.es",
        "rating": 0,
        "category_key": "",
        "subcategory_key": "",
        "currentOfferUrl": ""
    },
    {
        "name": "Culturas Fascinantes",
        "category": "",
        "description": "",
        "location": "",
        "imageUrl": "",
        "imageHint": "",
        "address": "???",
        "phone": "???",
        "website": "www.madridsingapur.com",
        "rating": 0,
        "category_key": "",
        "subcategory_key": "",
        "currentOfferUrl": ""
    },
    {
        "name": "Vive la Leyenda",
        "category": "",
        "description": "",
        "location": "",
        "imageUrl": "",
        "imageHint": "",
        "address": "???",
        "phone": "981-125-7473",
        "website": "???",
        "rating": 0,
        "category_key": "",
        "subcategory_key": "",
        "currentOfferUrl": ""
    },
    {
        "name": "EVA Incoming",
        "category": "",
        "description": "",
        "location": "",
        "imageUrl": "",
        "imageHint": "",
        "address": "C/ Ribera, 10, Priego de Córdoba",
        "phone": "957540952",
        "website": "www.evaincoming.com",
        "rating": 0,
        "category_key": "",
        "subcategory_key": "",
        "currentOfferUrl": ""
    },
    {
        "name": "Asiana Airlines",
        "category": "",
        "description": "",
        "location": "",
        "imageUrl": "",
        "imageHint": "",
        "address": "Aeropuerto de El Prat, Barcelona",
        "phone": "+34 932 959 542",
        "website": "www.flyasiana.com",
        "rating": 0,
        "category_key": "",
        "subcategory_key": "",
        "currentOfferUrl": ""
    },
    {
        "name": "Hostal Larios",
        "category": "",
        "description": "",
        "location": "",
        "imageUrl": "",
        "imageHint": "",
        "address": "C/ Larios, 9, 29015 Málaga",
        "phone": "952 225 490",
        "website": "www.hostallarios.com",
        "rating": 0,
        "category_key": "",
        "subcategory_key": "",
        "currentOfferUrl": ""
    },
    {
        "name": "All4One Travel",
        "category": "",
        "description": "",
        "location": "",
        "imageUrl": "",
        "imageHint": "",
        "address": "Calle Alfonso XII 62, Planta 2, 28014 Madrid",
        "phone": "+34 627 519 621",
        "website": "www.all4one.travel",
        "rating": 0,
        "category_key": "",
        "subcategory_key": "",
        "currentOfferUrl": ""
    },
    {
        "name": "Phoenix Voyages",
        "category": "",
        "description": "",
        "location": "",
        "imageUrl": "",
        "imageHint": "",
        "address": "Calle de la Marroquina 11, 3-C, 28030 Madrid",
        "phone": "+34 64 66 45 026",
        "website": "www.phoenixvoyages.com",
        "rating": 0,
        "category_key": "",
        "subcategory_key": "",
        "currentOfferUrl": ""
    },
    {
        "name": "MITM Events",
        "category": "",
        "description": "",
        "location": "",
        "imageUrl": "",
        "imageHint": "",
        "address": "C/ Ferraz, 13 5º/4 Drcha. 28008 Madrid",
        "phone": "+34 607 561 588",
        "website": "www.mitmevents.com",
        "rating": 0,
        "category_key": "",
        "subcategory_key": "",
        "currentOfferUrl": ""
    },
    {
        "name": "Departamento Comercial",
        "category": "",
        "description": "",
        "location": "",
        "imageUrl": "",
        "imageHint": "",
        "address": "Calle Cortina del Muelle 11, 29015 Málaga",
        "phone": "952 666 600",
        "website": "www.delparqueinmobiliaria.com",
        "rating": 0,
        "category_key": "",
        "subcategory_key": "",
        "currentOfferUrl": ""
    },
    {
        "name": "Plus Ultra",
        "category": "",
        "description": "",
        "location": "",
        "imageUrl": "",
        "imageHint": "",
        "address": "Avenida de Europa, 22, Piso 3, Madrid",
        "phone": "+34 697 415 170",
        "website": "www.plusultra.com",
        "rating": 0,
        "category_key": "",
        "subcategory_key": "",
        "currentOfferUrl": ""
    },
    {
        "name": "Turisme Creaturisme",
        "category": "",
        "description": "",
        "location": "",
        "imageUrl": "",
        "imageHint": "",
        "address": "Torre 2 -planta 3 C/ de la Democràcia, 77. 46018 – València",
        "phone": "+34 960 992 779",
        "website": "www.turisme.gva.es",
        "rating": 0,
        "category_key": "",
        "subcategory_key": "",
        "currentOfferUrl": ""
    },
    {
        "name": "Cafe  Berlin",
        "category": "",
        "description": "",
        "location": "",
        "imageUrl": "",
        "imageHint": "",
        "address": "Calle Afligidos 2, 29015 Malaga",
        "phone": "+34 952 223 096",
        "website": "https://www.instagram.com/cafe_berlin_malaga/?hl=es",
        "rating": 0,
        "category_key": "",
        "subcategory_key": "",
        "currentOfferUrl": ""
    },
    {
        "name": "JC hoteles",
        "category": "",
        "description": "",
        "location": "",
        "imageUrl": "",
        "imageHint": "",
        "address": "Glorieta de Pirámides 6, 28005 Madrid",
        "phone": "+34 902 400 409",
        "website": "www.jchoteles.com",
        "rating": 0,
        "category_key": "",
        "subcategory_key": "",
        "currentOfferUrl": ""
    },
    {
        "name": "Oxygen Hostal",
        "category": "",
        "description": "",
        "location": "",
        "imageUrl": "",
        "imageHint": "",
        "address": "C/de Rafael de Riego, 19-28045, Madrid",
        "phone": "+34 912 934 252",
        "website": "www.oxigenhostalcapsule.com",
        "rating": 0,
        "category_key": "",
        "subcategory_key": "",
        "currentOfferUrl": ""
    },
    {
        "name": "B&B Hotel Madrid Centro Fuencarral 52",
        "category": "",
        "description": "",
        "location": "",
        "imageUrl": "",
        "imageHint": "",
        "address": "C/Fuencarral,52 28004, Madrid",
        "phone": "+34 912 787 962",
        "website": "www.hotel.com",
        "rating": 0,
        "category_key": "",
        "subcategory_key": "",
        "currentOfferUrl": ""
    },
    {
        "name": "Capatur",
        "category": "",
        "description": "",
        "location": "",
        "imageUrl": "",
        "imageHint": "",
        "address": "???",
        "phone": "+34 677 414 587",
        "website": "???",
        "rating": 0,
        "category_key": "",
        "subcategory_key": "",
        "currentOfferUrl": ""
    },
    {
        "name": "Esencial Tours",
        "category": "",
        "description": "",
        "location": "",
        "imageUrl": "",
        "imageHint": "",
        "address": "Domicilio Fiscal: Avenida de Manoteras 10, Bloque B, Oficina 003, CP 28050 (Madrid)",
        "phone": "+34 677 39 51 28",
        "website": "www.esencialtours.com",
        "rating": 0,
        "category_key": "",
        "subcategory_key": "",
        "currentOfferUrl": ""
    },
    {
        "name": "Black Line",
        "category": "",
        "description": "",
        "location": "",
        "imageUrl": "",
        "imageHint": "",
        "address": "C/. Camarón de la Isla, 5, Pizarra, C.P. 29560 (Málaga)",
        "phone": "+34 658 716245",
        "website": "www.banuslimousineservices.com",
        "rating": 0,
        "category_key": "",
        "subcategory_key": "",
        "currentOfferUrl": ""
    },
    {
        "name": "La Rocherla-cafe+restaurante",
        "category": "",
        "description": "",
        "location": "",
        "imageUrl": "",
        "imageHint": "",
        "address": "C. del Cardenal Cisneros, 58, Chamberí, 28010 Madrid, España",
        "phone": "91 445 31 52",
        "website": "www.larochela.es",
        "rating": 0,
        "category_key": "",
        "subcategory_key": "",
        "currentOfferUrl": ""
    },
    {
        "name": "FFV-fly for vacations",
        "category": "",
        "description": "",
        "location": "",
        "imageUrl": "",
        "imageHint": "",
        "address": "Calle Francisco Silvela 36, Piso 1 Ofi 7. 28028 Madrid, España",
        "phone": "+34 633 474 358\n+34 910 274 369",
        "website": "www.flyforvacations.com",
        "rating": 0,
        "category_key": "",
        "subcategory_key": "",
        "currentOfferUrl": ""
    },
    {
        "name": "Dualia! vamos a entedernos",
        "category": "",
        "description": "",
        "location": "",
        "imageUrl": "",
        "imageHint": "",
        "address": "Parque Tecnologico Garaia Goiru 1 - Edf. A - 20.500 Arrasate- Mondragon Gipuzkoa",
        "phone": "619 424 430",
        "website": "www.dualia.com",
        "rating": 0,
        "category_key": "",
        "subcategory_key": "",
        "currentOfferUrl": ""
    },
    {
        "name": "Chimisay Inversiones, S.L.",
        "category": "",
        "description": "",
        "location": "",
        "imageUrl": "",
        "imageHint": "",
        "address": "C/ RUTH 12, BAJO 8 EDIFICIO LAS ERAS VIII. 38009 VISTABELLA\n38009 - SANTA CRUZ DE TENERIFE",
        "phone": "T: 922 279 318- M: 655 858 856",
        "website": "www.chimisayinversiones.com",
        "rating": 0,
        "category_key": "",
        "subcategory_key": "",
        "currentOfferUrl": ""
    },
    {
        "name": "Camino Real-El hotel de las tentaciones",
        "category": "",
        "description": "",
        "location": "",
        "imageUrl": "",
        "imageHint": "",
        "address": "Barrio la Fuente, S/N, – 39511 Selores, CABUÉRNIGA (Cantabria)",
        "phone": "+34 942 7061 71",
        "website": "www.caminorealdeselores.com",
        "rating": 0,
        "category_key": "",
        "subcategory_key": "",
        "currentOfferUrl": ""
    },
    {
        "name": "EVA-incoming extra virgin andalusia",
        "category": "",
        "description": "",
        "location": "",
        "imageUrl": "",
        "imageHint": "",
        "address": "C/Ribera, 10 Priego de Cordoba C.I.AN-147484-3",
        "phone": "T: 957540 952-M: +34669 700 762",
        "website": "www.evaincoming.com",
        "rating": 0,
        "category_key": "",
        "subcategory_key": "",
        "currentOfferUrl": ""
    },
    {
        "name": "MOGU",
        "category": "",
        "description": "",
        "location": "",
        "imageUrl": "",
        "imageHint": "",
        "address": "C/Jaras 9, Las Rozas de Madrid 28232, Madrid (Spain)",
        "phone": "+34 661 091 114",
        "website": "www.moguplatform.com",
        "rating": 0,
        "category_key": "",
        "subcategory_key": "",
        "currentOfferUrl": ""
    },
    {
        "name": "PasMundo-turismo y eventos",
        "category": "",
        "description": "",
        "location": "",
        "imageUrl": "",
        "imageHint": "",
        "address": "Avenidazabalgana 14 P05A 01015 Vitoria-Gasteiz Alava- Espaṅa",
        "phone": "+34 662 308 809",
        "website": "www.pasmundo.com",
        "rating": 0,
        "category_key": "",
        "subcategory_key": "",
        "currentOfferUrl": ""
    },
    {
        "name": "Grupo Excelencias",
        "category": "",
        "description": "",
        "location": "",
        "imageUrl": "",
        "imageHint": "",
        "address": "C/Captitan Haya 16 9º B. Z8020. Madrid. Espaṅa",
        "phone": "+34 915 560 040",
        "website": "www.excelencias.com",
        "rating": 0,
        "category_key": "",
        "subcategory_key": "",
        "currentOfferUrl": ""
    },
    {
        "name": "Creative Tourism Network",
        "category": "",
        "description": "",
        "location": "",
        "imageUrl": "",
        "imageHint": "",
        "address": "C/ Consell de Cent 08007 Barcelona, Espana",
        "phone": "???",
        "website": "www.creativetourismnetwork.org",
        "rating": 0,
        "category_key": "",
        "subcategory_key": "",
        "currentOfferUrl": ""
    },
    {
        "name": "Camping- La Rosaledas",
        "category": "",
        "description": "",
        "location": "",
        "imageUrl": "",
        "imageHint": "",
        "address": "Carretera del Pradillo Km 1.3, Conil de la Frontera, Cádiz, España.",
        "phone": "+34 956 44 33 27",
        "website": "www.campinglarosaleda.com",
        "rating": 0,
        "category_key": "",
        "subcategory_key": "",
        "currentOfferUrl": ""
    },
    {
        "name": "Amadeus",
        "category": "",
        "description": "",
        "location": "",
        "imageUrl": "",
        "imageHint": "",
        "address": "",
        "phone": "",
        "website": "www.amadeus.com",
        "rating": 0,
        "category_key": "",
        "subcategory_key": "",
        "currentOfferUrl": ""
    },
    {
        "name": "Atlantida-Alojamiento Turisticos",
        "category": "",
        "description": "",
        "location": "España",
        "imageUrl": "",
        "imageHint": "",
        "address": "C/Rio Guadalete, 19 - 11550 Chipiona(Cadiz)",
        "phone": "666 500 094 / 614 335 737",
        "website": "",
        "rating": 0,
        "category_key": "",
        "subcategory_key": "",
        "currentOfferUrl": ""
    },
    {
        "name": "Ayuntamiento de Ubrique",
        "category": "",
        "description": "",
        "location": "España",
        "imageUrl": "",
        "imageHint": "",
        "address": "",
        "phone": "670 085 169 / 956 46 12 90",
        "website": "www.ubriqueturismo.es",
        "rating": 0,
        "category_key": "",
        "subcategory_key": "",
        "currentOfferUrl": ""
    },
    {
        "name": "El Puerto de Santa Maria",
        "category": "",
        "description": "",
        "location": "",
        "imageUrl": "",
        "imageHint": "",
        "address": "Palacio de Aranibar (Plaza del Castillo, 9)",
        "phone": "+34 956 483 715",
        "website": "www.turismoelpuerto.com / www.elpuertodesantamaria.es",
        "rating": 0,
        "category_key": "",
        "subcategory_key": "",
        "currentOfferUrl": ""
    },
    {
        "name": "Viajes Gran China - IATA",
        "category": "",
        "description": "",
        "location": "",
        "imageUrl": "",
        "imageHint": "",
        "address": "C/Valverde, 5 28004  Madrid",
        "phone": "+34 915 223 603",
        "website": "www.viajesgranchina.com",
        "rating": 0,
        "category_key": "",
        "subcategory_key": "",
        "currentOfferUrl": ""
    },
    {
        "name": "Quintana Tours - Agencia de viajes",
        "category": "",
        "description": "",
        "location": "Madrid",
        "imageUrl": "",
        "imageHint": "",
        "address": "C/Acala, 414 - Planta Baja, local26, 28027 . madrid",
        "phone": "910 115 886 - 694 444 691 - 649 052 757",
        "website": "www.quintana-tours.com",
        "rating": 0,
        "category_key": "",
        "subcategory_key": "",
        "currentOfferUrl": ""
    },
    {
        "name": "Andalussia Hotel ***",
        "category": "",
        "description": "",
        "location": "Cadiz",
        "imageUrl": "",
        "imageHint": "",
        "address": "C/8 de marzo, S/N 11, 140 conil de la FGra. ( Cadiz) Spain",
        "phone": "+34 956 456 179 / Fax: +34 956452 498",
        "website": "www.hotelandalussiaconil.es",
        "rating": 0,
        "category_key": "",
        "subcategory_key": "",
        "currentOfferUrl": ""
    },
    {
        "name": "EntreArcos - casa eco-boutique",
        "category": "",
        "description": "",
        "location": "Cadiz",
        "imageUrl": "",
        "imageHint": "",
        "address": "C/Jose Castrillon, 7 Vejer de la Frontera Cadiz, Espana",
        "phone": "+34 652 50 63 26 /+34 615 51 90 49",
        "website": "casaentrearcos.com",
        "rating": 0,
        "category_key": "",
        "subcategory_key": "",
        "currentOfferUrl": ""
    },
    {
        "name": "Las delicias -antiguo teatro",
        "category": "",
        "description": "",
        "location": "Cadiz",
        "imageUrl": "",
        "imageHint": "",
        "address": "C/Corredera, 31 Vejer de la Frontera (Cadiz)",
        "phone": "+34 956 45 18 07",
        "website": "www.lasdeliciasvejer.com",
        "rating": 0,
        "category_key": "",
        "subcategory_key": "",
        "currentOfferUrl": ""
    },
    {
        "name": "Casa Karen",
        "category": "",
        "description": "",
        "location": "Cadiz",
        "imageUrl": "",
        "imageHint": "",
        "address": "Los caños de meca cadiz - costa de la luz",
        "phone": "+34 956 437 067 / +34 649 780 834",
        "website": "www.casaskaren.com",
        "rating": 0,
        "category_key": "",
        "subcategory_key": "",
        "currentOfferUrl": ""
    },
    {
        "name": "GTS -Gen travel Solutions",
        "category": "",
        "description": "",
        "location": "",
        "imageUrl": "",
        "imageHint": "",
        "address": "One Financial Plaza 100 SE 3rd Avenue, 10th floor Fort Lauderdale FL, 33394",
        "phone": "+34 652 04 05 19",
        "website": "www.gentravelsolutions.com",
        "rating": 0,
        "category_key": "",
        "subcategory_key": "",
        "currentOfferUrl": ""
    },
    {
        "name": "Magica Travel",
        "category": "",
        "description": "",
        "location": "",
        "imageUrl": "",
        "imageHint": "",
        "address": "",
        "phone": "'+330 661 5484 104 -(Zamary Potela - Asesora de viajes /+34 666329 682)",
        "website": "www.magicatravel.es",
        "rating": 0,
        "category_key": "",
        "subcategory_key": "",
        "currentOfferUrl": ""
    },
    {
        "name": "Gatu - Gestion de Alojamientos Turisticos",
        "category": "",
        "description": "",
        "location": "",
        "imageUrl": "",
        "imageHint": "",
        "address": "",
        "phone": "856 158 199 / 651 963 155 / 644 837 926",
        "website": "www.gatu.es",
        "rating": 0,
        "category_key": "",
        "subcategory_key": "",
        "currentOfferUrl": ""
    },
    {
        "name": "Conoce Cadiz",
        "category": "",
        "description": "",
        "location": "",
        "imageUrl": "",
        "imageHint": "",
        "address": "",
        "phone": "646 777 970",
        "website": "www.conocecadiz.com",
        "rating": 0,
        "category_key": "",
        "subcategory_key": "",
        "currentOfferUrl": ""
    },
    {
        "name": "Tu Guia en Cadiz",
        "category": "",
        "description": "",
        "location": "",
        "imageUrl": "",
        "imageHint": "",
        "address": "",
        "phone": "+34 722 56 64 38",
        "website": "www.tuguiaencadiz.com",
        "rating": 0,
        "category_key": "",
        "subcategory_key": "",
        "currentOfferUrl": ""
    },
    {
        "name": "e-Network travel",
        "category": "",
        "description": "",
        "location": "Barcelona",
        "imageUrl": "",
        "imageHint": "",
        "address": "Edenia Network, SL Via Augusta, 29 6º 08006 Barcelona",
        "phone": "+34 934 856 718 / +34 660 067 887",
        "website": "www.enetworktravel.com",
        "rating": 0,
        "category_key": "",
        "subcategory_key": "",
        "currentOfferUrl": ""
    },
    {
        "name": "Marine Atlantes - Barco Catramaran Turistico",
        "category": "",
        "description": "",
        "location": "",
        "imageUrl": "",
        "imageHint": "",
        "address": "Puerto Deportivo, S/N, 11160 B arbate, Cadiz",
        "phone": "+34 659 549 100",
        "website": "www.marineatlantes.com",
        "rating": 0,
        "category_key": "",
        "subcategory_key": "",
        "currentOfferUrl": ""
    },
    {
        "name": "Self- Service Laundry",
        "category": "",
        "description": "",
        "location": "",
        "imageUrl": "",
        "imageHint": "",
        "address": "Plaza de Cascorro, 3 28005 Madrid\n/C de Doña Urraca, 24 28011 Madrid",
        "phone": "640 56 82 40",
        "website": "www.lavanderiasalcube.webnode.es",
        "rating": 0,
        "category_key": "",
        "subcategory_key": "",
        "currentOfferUrl": ""
    },
    {
        "name": "Touristic  Bus",
        "category": "",
        "description": "",
        "location": "",
        "imageUrl": "",
        "imageHint": "",
        "address": "",
        "phone": "665 688 118",
        "website": "",
        "rating": 0,
        "category_key": "",
        "subcategory_key": "",
        "currentOfferUrl": ""
    },
    {
        "name": "Restaurante - El barril de kas cortes",
        "category": "",
        "description": "",
        "location": "",
        "imageUrl": "",
        "imageHint": "",
        "address": "Carrera de San Jerónimo, 17\n28014 Madrid",
        "phone": "91 737 94 54",
        "website": "www.barrildelascortes.com",
        "rating": 0,
        "category_key": "",
        "subcategory_key": "",
        "currentOfferUrl": ""
    },
    {
        "name": "Restaurant - Taqueria La Lupita",
        "category": "",
        "description": "",
        "location": "Madrid",
        "imageUrl": "",
        "imageHint": "",
        "address": "Carrera de san jeronimo, 17 28014 madrid",
        "phone": "91 152 65 65",
        "website": "www.lalupita.es",
        "rating": 0,
        "category_key": "",
        "subcategory_key": "",
        "currentOfferUrl": ""
    },
    {
        "name": "Restaurant - El Barril de las letras",
        "category": "",
        "description": "",
        "location": "",
        "imageUrl": "",
        "imageHint": "",
        "address": "Cervantes, 28 28014 Madrid",
        "phone": "91 186 36 32",
        "website": "www.barrildelasletras.com",
        "rating": 0,
        "category_key": "",
        "subcategory_key": "",
        "currentOfferUrl": ""
    },
    {
        "name": "Reastaurant - El barril de castellana",
        "category": "",
        "description": "",
        "location": "",
        "imageUrl": "",
        "imageHint": "",
        "address": "Poeta Joan Maragall, 23 28020 madrid",
        "phone": "91 737 98 88",
        "website": "www.granbarrildecastellana.com",
        "rating": 0,
        "category_key": "",
        "subcategory_key": "",
        "currentOfferUrl": ""
    },
    {
        "name": "MTA - Travel Solutions",
        "category": "",
        "description": "",
        "location": "",
        "imageUrl": "",
        "imageHint": "",
        "address": "",
        "phone": "+34 918 295 266 /+1 786 206 4409 /+506 2291 4455",
        "website": "www.mikitravel.net",
        "rating": 0,
        "category_key": "",
        "subcategory_key": "",
        "currentOfferUrl": ""
    },
    {
        "name": "Viajes Maramba - Maramba Tour",
        "category": "",
        "description": "",
        "location": "Tenerife-España",
        "imageUrl": "",
        "imageHint": "",
        "address": "",
        "phone": "639227754",
        "website": "",
        "rating": 0,
        "category_key": "",
        "subcategory_key": "",
        "currentOfferUrl": ""
    },
    {
        "name": "AMBLOST MEDIA - Movies-Tv series -Web series",
        "category": "",
        "description": "",
        "location": "Espana",
        "imageUrl": "",
        "imageHint": "",
        "address": "",
        "phone": "+34 640 729 938",
        "website": "www.amblostmedia.com",
        "rating": 0,
        "category_key": "",
        "subcategory_key": "",
        "currentOfferUrl": ""
    },
    {
        "name": "Boutique -L'Italiano",
        "category": "",
        "description": "",
        "location": "tenerife",
        "imageUrl": "",
        "imageHint": "",
        "address": "Hotel conquistador-38660 Playa de las americas",
        "phone": "+34 922 79 17 16 /+34 677 862851",
        "website": "",
        "rating": 0,
        "category_key": "",
        "subcategory_key": "",
        "currentOfferUrl": ""
    },
    {
        "name": "El Jardin de Eva",
        "category": "",
        "description": "",
        "location": "Tenerife",
        "imageUrl": "",
        "imageHint": "",
        "address": "Mercado de la recova- 'Puesto N 6 S/C de tenerife",
        "phone": "695 093 849",
        "website": "www.eljardindeeva.comBilbao",
        "rating": 0,
        "category_key": "",
        "subcategory_key": "",
        "currentOfferUrl": ""
    },
    {
        "name": "IMK- Comunicacion - Piedra de toque",
        "category": "",
        "description": "",
        "location": "Bilbao",
        "imageUrl": "",
        "imageHint": "",
        "address": "Uribitarte 18 7º 48001",
        "phone": "679 86 85 01",
        "website": "www.makazaga.com",
        "rating": 0,
        "category_key": "",
        "subcategory_key": "",
        "currentOfferUrl": ""
    },
    {
        "name": "AIRDNA",
        "category": "",
        "description": "",
        "location": "",
        "imageUrl": "",
        "imageHint": "",
        "address": "",
        "phone": "+34 652 193 983 / +34 932 205 569",
        "website": "www.airdna.com",
        "rating": 0,
        "category_key": "",
        "subcategory_key": "",
        "currentOfferUrl": ""
    },
    {
        "name": "IBERRUSIA TRAVEL",
        "category": "",
        "description": "",
        "location": "Barcelona",
        "imageUrl": "",
        "imageHint": "",
        "address": "Paseo de gracia, 50 1-2 A 08007",
        "phone": "+34 933 425 088 /+34 639 666 555",
        "website": "www.iberrusia.com",
        "rating": 0,
        "category_key": "",
        "subcategory_key": "",
        "currentOfferUrl": ""
    },
    {
        "name": "Anitravel",
        "category": "",
        "description": "",
        "location": "Madrid",
        "imageUrl": "",
        "imageHint": "",
        "address": "C/ Tejera negra 44, Getafe",
        "phone": "911 33 0011 /645 813 255 / +34 645 81 32 55",
        "website": "ww.viajesanitravel.com",
        "rating": 0,
        "category_key": "",
        "subcategory_key": "",
        "currentOfferUrl": ""
    },
    {
        "name": "Finca Las Cumbres de Montalban",
        "category": "",
        "description": "",
        "location": "",
        "imageUrl": "",
        "imageHint": "",
        "address": "",
        "phone": "+34 629 362 079",
        "website": "www.cumbresdemoltalban.com",
        "rating": 0,
        "category_key": "",
        "subcategory_key": "",
        "currentOfferUrl": ""
    },
    {
        "name": "Radio taxi - TGoledo",
        "category": "",
        "description": "",
        "location": "",
        "imageUrl": "",
        "imageHint": "",
        "address": "",
        "phone": "925 25 5050 / 925 22 7070",
        "website": "www.radiotaxi.com",
        "rating": 0,
        "category_key": "",
        "subcategory_key": "",
        "currentOfferUrl": ""
    },
    {
        "name": "Aleiza viajes",
        "category": "",
        "description": "",
        "location": "Ciudad real",
        "imageUrl": "",
        "imageHint": "",
        "address": "Avda de la Tecnologiua 25 oficina 14 13600 Alcazar de san juan",
        "phone": "676 732012",
        "website": "www.aleizaviajes.es",
        "rating": 0,
        "category_key": "",
        "subcategory_key": "",
        "currentOfferUrl": ""
    },
    {
        "name": "Restaurante -MAO - La mejor cocina japonesa en bilbao",
        "category": "",
        "description": "",
        "location": "Bilbao",
        "imageUrl": "",
        "imageHint": "",
        "address": "Ibáñez de Bilbao Kalea, 11, Abando, 48009 Bilbo, Bizkaia",
        "phone": "944 236 818 /944 236 796",
        "website": "www.restaurantemao.com",
        "rating": 0,
        "category_key": "",
        "subcategory_key": "",
        "currentOfferUrl": ""
    },
    {
        "name": "Quimbaya",
        "category": "",
        "description": "",
        "location": "",
        "imageUrl": "",
        "imageHint": "",
        "address": "Calle Zurbano, 63 – CP28010 Madrid",
        "phone": "'+(34) 912 401 896",
        "website": "www.quimbayarestaurant.com",
        "rating": 0,
        "category_key": "",
        "subcategory_key": "",
        "currentOfferUrl": ""
    }
]
